{"displayFieldName":"","fieldAliases":{"FID":"FID","OBJECTID":"OBJECTID","BUSNIESS_N":"BUSNIESS_N","BUSNIESS_1":"BUSNIESS_1","CITY":"CITY","CITY_1":"CITY_1"},"geometryType":"esriGeometryPoint","spatialReference":{"wkid":4326,"latestWkid":4326},"fields":[{"name":"FID","type":"esriFieldTypeOID","alias":"FID"},{"name":"OBJECTID","type":"esriFieldTypeInteger","alias":"OBJECTID"},{"name":"BUSNIESS_N","type":"esriFieldTypeString","alias":"BUSNIESS_N","length":150},{"name":"BUSNIESS_1","type":"esriFieldTypeString","alias":"BUSNIESS_1","length":150},{"name":"CITY","type":"esriFieldTypeString","alias":"CITY","length":15},{"name":"CITY_1","type":"esriFieldTypeString","alias":"CITY_1","length":20}],"features":[{"attributes":{"FID":0,"OBJECTID":1,"BUSNIESS_N":"مجمع فلسطين الطبي","BUSNIESS_1":"Palestine Medical Complex","CITY":"رام الله","CITY_1":"Ramallah"},"geometry":{"x":35.204811079191209,"y":31.898848178094777}},{"attributes":{"FID":1,"OBJECTID":2,"BUSNIESS_N":" مستشفى الرعاية التخصصي","BUSNIESS_1":"Care Specialist Hospital","CITY":"رام الله","CITY_1":"Ramallah"},"geometry":{"x":35.205078284254341,"y":31.905379392600199}},{"attributes":{"FID":2,"OBJECTID":3,"BUSNIESS_N":"مستشفى دكتور ضرغام","BUSNIESS_1":"Dr.Dergham Hospital","CITY":"رام الله","CITY_1":"Ramallah"},"geometry":{"x":35.204428326166202,"y":31.897747383972042}},{"attributes":{"FID":3,"OBJECTID":4,"BUSNIESS_N":" مستشفى المستقبل","BUSNIESS_1":"Al Mustakbal Hospital","CITY":"البيرة","CITY_1":"Al Bierah"},"geometry":{"x":35.214167418863404,"y":31.914433044313196}},{"attributes":{"FID":4,"OBJECTID":5,"BUSNIESS_N":"المركز الصحي العربي","BUSNIESS_1":"Arabic Health Center","CITY":"البيرة","CITY_1":"Al Bierah"},"geometry":{"x":35.206537250841556,"y":31.90463383996682}},{"attributes":{"FID":5,"OBJECTID":6,"BUSNIESS_N":" مستشفى العمري","BUSNIESS_1":"Al Amari Health Center","CITY":"البيرة","CITY_1":"Al Bierah"},"geometry":{"x":35.210772694613489,"y":31.89462854715951}},{"attributes":{"FID":6,"OBJECTID":7,"BUSNIESS_N":"المستشفى الاستشاري العربي","BUSNIESS_1":"Istishari Arab Hospital","CITY":"رام الله","CITY_1":"Ramallah"},"geometry":{"x":35.162314203615608,"y":31.933553067680933}},{"attributes":{"FID":7,"OBJECTID":8,"BUSNIESS_N":"مركز التنمية","BUSNIESS_1":"Altanmeyah Center","CITY":"البيرة","CITY_1":"Al Bierah"},"geometry":{"x":35.21531548695355,"y":31.887438041642817}},{"attributes":{"FID":8,"OBJECTID":9,"BUSNIESS_N":"مستشفى الهلال الأحمر الفلسطيني","BUSNIESS_1":"Palestinian Red Crescent Hospital","CITY":"البيرة","CITY_1":"Al Bierah"},"geometry":{"x":35.211764641042308,"y":31.905857815031091}},{"attributes":{"FID":9,"OBJECTID":10,"BUSNIESS_N":"مستشفى الناظر للولادة","BUSNIESS_1":"Nazer Maternity Hospital","CITY":"رام الله","CITY_1":"Ramallah"},"geometry":{"x":35.206390854139464,"y":31.906435211638339}},{"attributes":{"FID":10,"OBJECTID":11,"BUSNIESS_N":"مستشفى الرازي","BUSNIESS_1":"Al Razi Hospital","CITY":"البيرة","CITY_1":"Al Bierah"},"geometry":{"x":35.214711311496423,"y":31.896593436528104}},{"attributes":{"FID":11,"OBJECTID":12,"BUSNIESS_N":"مستشفى مسلم التخصصي","BUSNIESS_1":"Muslam Hospital","CITY":"البيرة","CITY_1":"Al Bierah"},"geometry":{"x":35.206284173671676,"y":31.924291396659552}},{"attributes":{"FID":12,"OBJECTID":13,"BUSNIESS_N":"مركز الراجحي الطبي","BUSNIESS_1":"Al-Rajhi Clinic","CITY":"البيرة","CITY_1":"Al Bierah"},"geometry":{"x":35.219462625442844,"y":31.871605124742519}},{"attributes":{"FID":13,"OBJECTID":14,"BUSNIESS_N":"مستشفى الهلال الأحمر","BUSNIESS_1":"Alhilal Alahmar","CITY":"البيرة","CITY_1":"Al Bierah"},"geometry":{"x":35.21257720450641,"y":31.89271345985243}},{"attributes":{"FID":14,"OBJECTID":15,"BUSNIESS_N":"مستشفى خالد","BUSNIESS_1":"Khalid Hospital","CITY":"البيرة","CITY_1":"Al Bierah"},"geometry":{"x":35.206928614026438,"y":31.921772929302229}},{"attributes":{"FID":15,"OBJECTID":16,"BUSNIESS_N":"مستشفى أبوريا التخصصي","BUSNIESS_1":"Abu Rayya for the Rehabilitation of the Disabled","CITY":"رام الله","CITY_1":"Ramallah"},"geometry":{"x":35.190846232397021,"y":31.898584530835155}}]}