{"displayFieldName":"","fieldAliases":{"FID":"FID","BUSNIESS_N":"BUSNIESS_N","BUSNIESS_1":"BUSNIESS_1","ADDRESS":"ADDRESS","ADDRESS_E":"ADDRESS_E"},"geometryType":"esriGeometryPoint","spatialReference":{"wkid":4326,"latestWkid":4326},"fields":[{"name":"FID","type":"esriFieldTypeOID","alias":"FID"},{"name":"BUSNIESS_N","type":"esriFieldTypeString","alias":"BUSNIESS_N","length":150},{"name":"BUSNIESS_1","type":"esriFieldTypeString","alias":"BUSNIESS_1","length":150},{"name":"ADDRESS","type":"esriFieldTypeString","alias":"ADDRESS","length":150},{"name":"ADDRESS_E","type":"esriFieldTypeString","alias":"ADDRESS_E","length":150}],"features":[{"attributes":{"FID":0,"BUSNIESS_N":"مدرسة عين منجد الاساسية","BUSNIESS_1":"Ain Munjid basic School","ADDRESS":"66 شارع اسعد سمعان جغب","ADDRESS_E":"66 As'ad Sam'an Jaghab Street"},"geometry":{"x":35.193734510609758,"y":31.890132349507638}},{"attributes":{"FID":1,"BUSNIESS_N":"مدرسة الكلية الأهلية","BUSNIESS_1":"Al-Ahliyyah College","ADDRESS":"35 شارع الرئيسي","ADDRESS_E":"35 Main Street"},"geometry":{"x":35.198790103872298,"y":31.905049514627351}},{"attributes":{"FID":2,"BUSNIESS_N":"مدرسة ذكور رام الله الاساسية","BUSNIESS_1":"Ramallah basic boys school","ADDRESS":"20 شارع الرمله","ADDRESS_E":"20 Ar-Ramla  Street"},"geometry":{"x":35.193437745893995,"y":31.900902533650051}},{"attributes":{"FID":3,"BUSNIESS_N":"كلية فلسطين التقنية","BUSNIESS_1":"Palestine Technical College","ADDRESS":"10 شارع خليل الوزير","ADDRESS_E":"10 Khalil Al-Wazir Street"},"geometry":{"x":35.202697830666324,"y":31.895305283992908}},{"attributes":{"FID":4,"BUSNIESS_N":"مدرسة فيصل الحسيني","BUSNIESS_1":"Faisal Al Husseini School","ADDRESS":"12 شارع خليل الوزير","ADDRESS_E":"12 Khalil Al-Wazir Street"},"geometry":{"x":35.202883992966235,"y":31.894218516408692}},{"attributes":{"FID":5,"BUSNIESS_N":" المدرسة الانجيلية الاسقفية العربية","BUSNIESS_1":"Arab Evangelical School","ADDRESS":"43 شارع الطيره","ADDRESS_E":"43 Al-Tireh Street"},"geometry":{"x":35.189740194406134,"y":31.90887534984736}},{"attributes":{"FID":6,"BUSNIESS_N":" مدرسة عين مصباح","BUSNIESS_1":"Ain Misbah School","ADDRESS":"48 شارع اللد","ADDRESS_E":"48 Al-Lidd Street"},"geometry":{"x":35.198964460483488,"y":31.913362717066203}},{"attributes":{"FID":7,"BUSNIESS_N":"جامعة القدس المفتوحة","BUSNIESS_1":"Al-Quds Open University","ADDRESS":"49 شارع هافانا","ADDRESS_E":"49 Havana Street"},"geometry":{"x":35.195150501642914,"y":31.912861565833968}},{"attributes":{"FID":8,"BUSNIESS_N":"مدرسة وروضة فلسطين الغد","BUSNIESS_1":"School and kindergarten Palestine Tomorrow","ADDRESS":"35 شارع اللد","ADDRESS_E":"35 Al-Lidd Street"},"geometry":{"x":35.200835590101406,"y":31.91198037418155}},{"attributes":{"FID":9,"BUSNIESS_N":"مدرسة زياد ابو عين الاساسية","BUSNIESS_1":" ","ADDRESS":"50 شارع ابناء رام الله","ADDRESS_E":"50 Sons of Ramallah Street"},"geometry":{"x":35.189305323408249,"y":31.915409634922547}},{"attributes":{"FID":10,"BUSNIESS_N":"جامعة النجاح الوطنية","BUSNIESS_1":" ","ADDRESS":"8 شارع الجهاد","ADDRESS_E":"8 Al-Jihad Street"},"geometry":{"x":35.202640462520563,"y":31.89708837787871}},{"attributes":{"FID":11,"BUSNIESS_N":"مدرسة فلسطين الغد","BUSNIESS_1":" ","ADDRESS":"3 حيفا","ADDRESS_E":"3 Haifa Street"},"geometry":{"x":35.204883426350101,"y":31.912852487633845}},{"attributes":{"FID":12,"BUSNIESS_N":"المدرسة المهنية","BUSNIESS_1":" ","ADDRESS":"14 شارع غاندي","ADDRESS_E":"14 Gandhi Street"},"geometry":{"x":35.18018074907441,"y":31.919356354894035}},{"attributes":{"FID":13,"BUSNIESS_N":"مركز التعليم المستمر جامعة بير زيت","BUSNIESS_1":" ","ADDRESS":"25 شارع الاذاعة","ADDRESS_E":"25 Radio St. Street"},"geometry":{"x":35.207306888379847,"y":31.906829923637545}},{"attributes":{"FID":14,"BUSNIESS_N":"مدرسة الفرندز للبنات","BUSNIESS_1":"Friends Girls School","ADDRESS":"15 شارع الفرندز","ADDRESS_E":"15 Friends Street"},"geometry":{"x":35.198237333476534,"y":31.902991976907376}},{"attributes":{"FID":15,"BUSNIESS_N":"مدرسة الرجاء الإنجيلية اللوثرية","BUSNIESS_1":"Evangelical Lutheran School of Hope","ADDRESS":"11 شارع جنوب افريقيا","ADDRESS_E":"11 The Republic of South Africa Street"},"geometry":{"x":35.185393253438534,"y":31.89997515747228}},{"attributes":{"FID":16,"BUSNIESS_N":"مدرسة محمود درويش الاساسية","BUSNIESS_1":" ","ADDRESS":"6 شارع ناجي العلي","ADDRESS_E":"6 Naji Al-Ali Street"},"geometry":{"x":35.200877632745865,"y":31.8918370365462}},{"attributes":{"FID":17,"BUSNIESS_N":"الكليةى العصرية الجامعية | مبنى المحامي د. حسين الشيوخي","BUSNIESS_1":"Modern University College","ADDRESS":"4 شارع حنا ميخائيل","ADDRESS_E":"4 Hanna Mikha'il Street"},"geometry":{"x":35.204009695470901,"y":31.899524450857175}},{"attributes":{"FID":18,"BUSNIESS_N":"مدرسة الرواد","BUSNIESS_1":"Al ruwad","ADDRESS":"41 شارع جبران خليل جبران","ADDRESS_E":"41 Gibran Khalil Gibran Street"},"geometry":{"x":35.184205321509978,"y":31.906443220142741}},{"attributes":{"FID":19,"BUSNIESS_N":"مدرسة هواري بو مدين","BUSNIESS_1":"Howari Bou Midyan School","ADDRESS":"4 شارع القديس بطرس","ADDRESS_E":"4 Saint Peter Street"},"geometry":{"x":35.193723575881563,"y":31.904775639792977}},{"attributes":{"FID":20,"BUSNIESS_N":"كلية مجتمع المرأة برام الله وكلية العلوم التربوية","BUSNIESS_1":"Women Society College","ADDRESS":"66 شارع الطيره","ADDRESS_E":"66 Al-Tireh Street"},"geometry":{"x":35.182077554672276,"y":31.911941632150953}},{"attributes":{"FID":21,"BUSNIESS_N":"مدرسة عزيز شاهين","BUSNIESS_1":"Aziz Shaheen School","ADDRESS":"18 شارع دار جغب","ADDRESS_E":"18 Dar Jaghab Street"},"geometry":{"x":35.19457074519368,"y":31.900419460238808}},{"attributes":{"FID":22,"BUSNIESS_N":"مدرسة راهبات مار يوسف","BUSNIESS_1":"St. Joseph School","ADDRESS":"4 شارع دير اللاتين","ADDRESS_E":"4 Catholic Monestary Street"},"geometry":{"x":35.197663601837746,"y":31.904952327430422}},{"attributes":{"FID":23,"BUSNIESS_N":"مدارس المستقبل للتطوير التربوي","BUSNIESS_1":"Al-Mustaqbal Schools for Educational Development","ADDRESS":"6 شارع جابي برامكي","ADDRESS_E":"6 Gabi Baramki Street"},"geometry":{"x":35.177638445126263,"y":31.913910939055196}},{"attributes":{"FID":24,"BUSNIESS_N":"مدرسة رام الله الثانوية للبنات","BUSNIESS_1":"Ramallah Secondary School","ADDRESS":"7 شارع المنتزه","ADDRESS_E":"7 Al-Muntazah Street"},"geometry":{"x":35.200307345767285,"y":31.903396700584906}},{"attributes":{"FID":25,"BUSNIESS_N":"جامعة القدس المفتوحة","BUSNIESS_1":"Jerusalem Open University","ADDRESS":"46 شارع اللد","ADDRESS_E":"46 Al-Lidd Street"},"geometry":{"x":35.198857220579363,"y":31.913041349538851}},{"attributes":{"FID":26,"BUSNIESS_N":"اكاديمية الاقصى للعلوم والتكنولوجيا","BUSNIESS_1":" ","ADDRESS":"1 شارع يافا","ADDRESS_E":"1 Yaffa Street"},"geometry":{"x":35.202042469746111,"y":31.903086209958964}},{"attributes":{"FID":27,"BUSNIESS_N":"مدرسة ذوي الاحتياجات الخاصة رام الله","BUSNIESS_1":"special need school","ADDRESS":"16 شارع احمد عرابي","ADDRESS_E":"16 Ahmad Urabi Street"},"geometry":{"x":35.192856356384958,"y":31.895969877986886}},{"attributes":{"FID":28,"BUSNIESS_N":"المدرسة الصينية","BUSNIESS_1":" ","ADDRESS":"4 شارع جاك شيراك","ADDRESS_E":"4 Jacques Chirac Street"},"geometry":{"x":35.201769315648505,"y":31.915647924718691}},{"attributes":{"FID":29,"BUSNIESS_N":"مدرسة الوكالة للبنات","BUSNIESS_1":"UNRWA School for Girls","ADDRESS":"27 شارع القس عودة رنتيسي","ADDRESS_E":"27 Reverend Audeh Rantisi Street"},"geometry":{"x":35.181189658366144,"y":31.911239006004028}},{"attributes":{"FID":30,"BUSNIESS_N":"مدرسة سيدة بشارة","BUSNIESS_1":"mrs Bashara School","ADDRESS":"11 شارع السهل","ADDRESS_E":"11 Al-Sahl Street"},"geometry":{"x":35.197939080559699,"y":31.902085373271667}},{"attributes":{"FID":31,"BUSNIESS_N":"مدرسة الروم الأرثوذكسية","BUSNIESS_1":"St. George’s Secondary School","ADDRESS":"9 شارع سليمان النجاب","ADDRESS_E":"9 Sulayman Najjab Street"},"geometry":{"x":35.183197674309362,"y":31.913726691072956}},{"attributes":{"FID":32,"BUSNIESS_N":"كلية مجتمع رام الله","BUSNIESS_1":"Community College of Ramallah","ADDRESS":"27 شارع خليل الوزير","ADDRESS_E":"27 Khalil Al-Wazir Street"},"geometry":{"x":35.200783979418006,"y":31.893704497435454}},{"attributes":{"FID":33,"BUSNIESS_N":"مدرسة رام الله الثانوية","BUSNIESS_1":"Ramalh High school","ADDRESS":"20 شارع المعاهد","ADDRESS_E":"20 Al-Ma'ahed Street"},"geometry":{"x":35.203289681206918,"y":31.900647772612881}},{"attributes":{"FID":34,"BUSNIESS_N":"مدرسة ليسيه الفرنسية الدولية","BUSNIESS_1":"مدرسة ليسيه الفرنسية الدولية","ADDRESS":" ","ADDRESS_E":" "},"geometry":{"x":35.202773948385541,"y":31.915384266762977}}]}